Title,city,Latitude,Longitude,Popup
Djakime2,keine,14.41964998,13.44670515,This is Djakime2
<b>Djalori</b>,ahnung,13.38334994,12.71268421,This is Djalori
Djambourou Dune,ehnur,13.2188553,12.0291935,This is Djambouri
Djariho,test,13.89171304,12.75431244,This is Djariho
"Dubai </br> </br> <img src=""https://www.w3schools.com/images/w3schools_green.jpg"">",sachen,13.30812761,12.59268994,This is Dubai
"El Hadji Mainari <a href=""www.reach-initiative.org""> REACH </a>",stadt,13.44213704,12.7887266,This is El Hadji Mainari
