Title,Latitude,Longitude,Popup
Djakime2,14.41964998,13.44670515,This is Djakime2
Djalori,13.38334994,12.71268421,This is Djalori
Djambourou Dune,13.2188553,12.0291935,This is Djambouri
Djariho,13.89171304,12.75431244,This is Djariho
Dubaï,13.30812761,12.59268994,This is Dubai
El Hadji Mainari,13.44213704,12.7887266,This is El Hadji Mainari
